{
  "teams" :
  [{
    "name": "Aguada",
    "address": "Av. Gral. San Martín 2261, 11800 Montevideo",
    "latitude": -34.8847236,
    "longitude": -56.1893911,
    "marker": "ic_marker_aguada"
  },
    {
      "name":  "Atenas",
      "address": "Cebollatí 1434, 11200 Montevideo",
      "latitude": -34.9136608,
      "longitude": -56.1852069,
      "marker": "ic_marker_default"
    },
    {
      "name": "Bigua",
      "address": "Club Biguá de Villa Biarritz, José Vázquez Ledesma 2968, 11300 Montevideo",
      "latitude": -34.9211845,
      "longitude": -56.1556524,
      "marker":  "ic_marker_bigua"
    },
    {
      "name": "Bohemios",
      "address": "Gabriel A. Pereira, 11300 Montevideo",
      "latitude": -34.9066225,
      "longitude": -56.1525078,
      "marker": "ic_marker_default"
    },
    {
      "name": "Capitol",
      "address": "Gil 1151, 11700 Montevideo",
      "latitude": -34.8705985,
      "longitude": -56.2002021,
      "marker": "ic_marker_default"
    },
    {
      "name": "Capurro",
      "address": "Capurro 922, 11800 Montevideo",
      "latitude": -34.8700221,
      "longitude": -56.2102794,
      "marker": "ic_marker_default"
    },
    {
      "name": "Colón",
      "address": "Av. Gral. San Martín 2842, 11800 Montevideo",
      "latitude": -34.8682656,
      "longitude": -56.183437,
      "marker": "ic_marker_default"
    },
    {
      "name": "Cordón",
      "address": "Galicia 1673, 11200 Montevideo",
      "latitude": -34.8978286,
      "longitude": -56.1831176,
      "marker": "ic_marker_default"
    },
    {
      "name": "Defensor Sp",
      "address":  "Jaime Zudáñez 2661, 11300 Montevideo",
      "latitude": -34.9211841,
      "longitude": -56.1622185,
      "marker": "ic_marker_dsp"
    },
    {
      "name":  "Goes",
      "address": "Vilardebó 1931, 11800 Montevideo",
      "latitude": -34.8787636,
      "longitude": -56.1798142,
      "marker": "ic_marker_default"
    },
    {
      "name": "Hebrayca y Macabi",
      "address": "Camacuá 623, 11000 Montevideo",
      "latitude": -34.9094213,
      "longitude": -56.203490,
      "marker": "ic_marker_default"
    },
    {
      "name": "Larrañaga",
      "address": "Dr. Francisco Simón 2318, 11600 Montevideo",
      "latitude": -34.8848698,
      "longitude": -56.1506585,
      "marker": "ic_marker_default"
    },
    {
      "name": "Larre Borges",
      "address": "Villagran, 12100 Montevideo",
      "latitude": -34.8694503,
      "longitude": -56.1354679,
      "marker": "ic_marker_default"
    },
    {
      "name": "Malvín",
      "address": "Avenida Enrique Legrand 5163, 11400 Montevideo",
      "latitude": -34.8906568,
      "longitude": -56.09882,
      "marker": "ic_marker_default"
    },
    {
      "name": "Montevideo",
      "address": "Porongos 2203, 11800 Montevideo",
      "latitude": -34.8906517,
      "longitude": -56.1316508,
      "marker": "ic_marker_default"
    },
    {
      "name": "Olimpia",
      "address": "Av Gral Eugenio Garzón 1923, 12500 Montevideo",
      "latitude": -34.805906,
      "longitude": -56.2251617,
      "marker": "ic_marker_olimpia"
    }]
}
